%time,field.header.seq,field.header.stamp,field.header.frame_id,field.child_frame_id,field.pose.pose.position.x,field.pose.pose.position.y,field.pose.pose.position.z,field.pose.pose.orientation.x,field.pose.pose.orientation.y,field.pose.pose.orientation.z,field.pose.pose.orientation.w,field.pose.covariance0,field.pose.covariance1,field.pose.covariance2,field.pose.covariance3,field.pose.covariance4,field.pose.covariance5,field.pose.covariance6,field.pose.covariance7,field.pose.covariance8,field.pose.covariance9,field.pose.covariance10,field.pose.covariance11,field.pose.covariance12,field.pose.covariance13,field.pose.covariance14,field.pose.covariance15,field.pose.covariance16,field.pose.covariance17,field.pose.covariance18,field.pose.covariance19,field.pose.covariance20,field.pose.covariance21,field.pose.covariance22,field.pose.covariance23,field.pose.covariance24,field.pose.covariance25,field.pose.covariance26,field.pose.covariance27,field.pose.covariance28,field.pose.covariance29,field.pose.covariance30,field.pose.covariance31,field.pose.covariance32,field.pose.covariance33,field.pose.covariance34,field.pose.covariance35,field.twist.twist.linear.x,field.twist.twist.linear.y,field.twist.twist.linear.z,field.twist.twist.angular.x,field.twist.twist.angular.y,field.twist.twist.angular.z,field.twist.covariance0,field.twist.covariance1,field.twist.covariance2,field.twist.covariance3,field.twist.covariance4,field.twist.covariance5,field.twist.covariance6,field.twist.covariance7,field.twist.covariance8,field.twist.covariance9,field.twist.covariance10,field.twist.covariance11,field.twist.covariance12,field.twist.covariance13,field.twist.covariance14,field.twist.covariance15,field.twist.covariance16,field.twist.covariance17,field.twist.covariance18,field.twist.covariance19,field.twist.covariance20,field.twist.covariance21,field.twist.covariance22,field.twist.covariance23,field.twist.covariance24,field.twist.covariance25,field.twist.covariance26,field.twist.covariance27,field.twist.covariance28,field.twist.covariance29,field.twist.covariance30,field.twist.covariance31,field.twist.covariance32,field.twist.covariance33,field.twist.covariance34,field.twist.covariance35
100000000,0,0,odom,base_link,-138.4821722,-70.43534909,36.79648931,-0.000557031,-0.001733979,-0.308816733,0.951119818,0,0,0,0,0,0,0,0,0,0,0,0,0,0,0,0,0,0,0,0,0,0,0,0,0,0,0,0,0,0,0,0,0,0,0,0,0.000881508,0,0.000620977,0,0,0,0,0,0,0,0,0,0,0,0,0,0,0,0,0,0,0,0,0,0,0,0,0,0,0,0,0,0,0,0,0,0,0,0,0,0,0
10000000000,1000,10000000000,odom,base_link,-138.631946,-70.32649257,36.79580565,-0.000561695,-0.001766307,-0.308834626,0.951113946,0,0,0,0,0,0,0,0,0,0,0,0,0,0,0,0,0,0,0,0,0,0,0,0,0,0,0,0,0,0,0,0,0,0,0,0,0.010699923,0,-5.23E-05,-1.99E-06,-2.82E-06,-5.83E-07,0,0,0,0,0,0,0,0,0,0,0,0,0,0,0,0,0,0,0,0,0,0,0,0,0,0,0,0,0,0,0,0,0,0,0,0
19900000000,2000,20000000000,odom,base_link,-138.7752169,-70.2224837,36.79529483,-0.00056667,-0.001782349,-0.308836687,0.951113244,0,0,0,0,0,0,0,0,0,0,0,0,0,0,0,0,0,0,0,0,0,0,0,0,0,0,0,0,0,0,0,0,0,0,0,0,0.01010336,0,-4.99E-05,-1.89E-06,-2.67E-06,-3.88E-07,0,0,0,0,0,0,0,0,0,0,0,0,0,0,0,0,0,0,0,0,0,0,0,0,0,0,0,0,0,0,0,0,0,0,0,0
30000000000,3000,30000000000,odom,base_link,-138.9103286,-70.12439802,36.794808,-0.00057139,-0.001797568,-0.308838462,0.951112636,0,0,0,0,0,0,0,0,0,0,0,0,0,0,0,0,0,0,0,0,0,0,0,0,0,0,0,0,0,0,0,0,0,0,0,0,0.009515306,0,-4.75E-05,-1.79E-06,-2.53E-06,-3.64E-07,0,0,0,0,0,0,0,0,0,0,0,0,0,0,0,0,0,0,0,0,0,0,0,0,0,0,0,0,0,0,0,0,0,0,0,0
40000000000,4000,40000000000,odom,base_link,-139.0374026,-70.03214665,36.7943456,-0.000575855,-0.001811964,-0.308840128,0.951112065,0,0,0,0,0,0,0,0,0,0,0,0,0,0,0,0,0,0,0,0,0,0,0,0,0,0,0,0,0,0,0,0,0,0,0,0,0.008936714,0,-4.50E-05,-1.69E-06,-2.39E-06,-3.41E-07,0,0,0,0,0,0,0,0,0,0,0,0,0,0,0,0,0,0,0,0,0,0,0,0,0,0,0,0,0,0,0,0,0,0,0,0
50000000000,5000,50000000000,odom,base_link,-139.156579,-69.94562816,36.79390791,-0.000580063,-0.001825538,-0.30884169,0.95111153,0,0,0,0,0,0,0,0,0,0,0,0,0,0,0,0,0,0,0,0,0,0,0,0,0,0,0,0,0,0,0,0,0,0,0,0,0.008368975,0,-4.25E-05,-1.59E-06,-2.25E-06,-3.19E-07,0,0,0,0,0,0,0,0,0,0,0,0,0,0,0,0,0,0,0,0,0,0,0,0,0,0,0,0,0,0,0,0,0,0,0,0
60000000000,6000,60000000000,odom,base_link,-139.2680179,-69.86472624,36.79349509,-0.000584018,-0.001838294,-0.308843148,0.951111029,0,0,0,0,0,0,0,0,0,0,0,0,0,0,0,0,0,0,0,0,0,0,0,0,0,0,0,0,0,0,0,0,0,0,0,0,0.007813683,0,-4.00E-05,-1.49E-06,-2.11E-06,-2.98E-07,0,0,0,0,0,0,0,0,0,0,0,0,0,0,0,0,0,0,0,0,0,0,0,0,0,0,0,0,0,0,0,0,0,0,0,0
70000000000,7000,70000000000,odom,base_link,-139.3719034,-69.78930754,36.79310716,-0.000587721,-0.001850243,-0.308844506,0.951110563,0,0,0,0,0,0,0,0,0,0,0,0,0,0,0,0,0,0,0,0,0,0,0,0,0,0,0,0,0,0,0,0,0,0,0,0,0.007272652,0,-3.76E-05,-1.39E-06,-1.98E-06,-2.77E-07,0,0,0,0,0,0,0,0,0,0,0,0,0,0,0,0,0,0,0,0,0,0,0,0,0,0,0,0,0,0,0,0,0,0,0,0
80000000000,8000,80000000000,odom,base_link,-139.4684458,-69.71921934,36.79274395,-0.000591177,-0.001861396,-0.308845767,0.951110129,0,0,0,0,0,0,0,0,0,0,0,0,0,0,0,0,0,0,0,0,0,0,0,0,0,0,0,0,0,0,0,0,0,0,0,0,0.006747947,0,-3.51E-05,-1.30E-06,-1.84E-06,-2.57E-07,0,0,0,0,0,0,0,0,0,0,0,0,0,0,0,0,0,0,0,0,0,0,0,0,0,0,0,0,0,0,0,0,0,0,0,0
90000000000,9000,90000000000,odom,base_link,-139.5578859,-69.65428696,36.79240514,-0.000594391,-0.001871771,-0.308846934,0.951109728,0,0,0,0,0,0,0,0,0,0,0,0,0,0,0,0,0,0,0,0,0,0,0,0,0,0,0,0,0,0,0,0,0,0,0,0,0.006241898,0,-3.27E-05,-1.21E-06,-1.71E-06,-2.37E-07,0,0,0,0,0,0,0,0,0,0,0,0,0,0,0,0,0,0,0,0,0,0,0,0,0,0,0,0,0,0,0,0,0,0,0,0
1E+11,10000,1E+11,odom,base_link,-139.6404984,-69.59431102,36.7920902,-0.000597371,-0.001881391,-0.308848011,0.951109357,0,0,0,0,0,0,0,0,0,0,0,0,0,0,0,0,0,0,0,0,0,0,0,0,0,0,0,0,0,0,0,0,0,0,0,0,0.005757113,0,-3.03E-05,-1.12E-06,-1.58E-06,-2.19E-07,0,0,0,0,0,0,0,0,0,0,0,0,0,0,0,0,0,0,0,0,0,0,0,0,0,0,0,0,0,0,0,0,0,0,0,0
1.1E+11,11000,1.1E+11,odom,base_link,-139.7165958,-69.53906474,36.79179839,-0.000600125,-0.001890284,-0.308849003,0.951109016,0,0,0,0,0,0,0,0,0,0,0,0,0,0,0,0,0,0,0,0,0,0,0,0,0,0,0,0,0,0,0,0,0,0,0,0,0.005296462,0,-2.81E-05,-1.03E-06,-1.46E-06,-2.01E-07,0,0,0,0,0,0,0,0,0,0,0,0,0,0,0,0,0,0,0,0,0,0,0,0,0,0,0,0,0,0,0,0,0,0,0,0
1.2E+11,12000,1.2E+11,odom,base_link,-139.7865317,-69.4882915,36.79152876,-0.000602664,-0.001898482,-0.308849914,0.951108702,0,0,0,0,0,0,0,0,0,0,0,0,0,0,0,0,0,0,0,0,0,0,0,0,0,0,0,0,0,0,0,0,0,0,0,0,0.004863031,0,-2.59E-05,-9.49E-07,-1.35E-06,-1.85E-07,0,0,0,0,0,0,0,0,0,0,0,0,0,0,0,0,0,0,0,0,0,0,0,0,0,0,0,0,0,0,0,0,0,0,0,0
1.3E+11,13000,1.3E+11,odom,base_link,-139.850703,-69.44170313,36.79128014,-0.000605,-0.001906028,-0.308850751,0.951108414,0,0,0,0,0,0,0,0,0,0,0,0,0,0,0,0,0,0,0,0,0,0,0,0,0,0,0,0,0,0,0,0,0,0,0,0,0.004460022,0,-2.39E-05,-8.72E-07,-1.24E-06,-1.69E-07,0,0,0,0,0,0,0,0,0,0,0,0,0,0,0,0,0,0,0,0,0,0,0,0,0,0,0,0,0,0,0,0,0,0,0,0
1.4E+11,14000,1.4E+11,odom,base_link,-139.9095507,-69.39897953,36.79105112,-0.000607147,-0.001912965,-0.308851519,0.951108149,0,0,0,0,0,0,0,0,0,0,0,0,0,0,0,0,0,0,0,0,0,0,0,0,0,0,0,0,0,0,0,0,0,0,0,0,0.00409058,0,-2.20E-05,-8.02E-07,-1.14E-06,-1.56E-07,0,0,0,0,0,0,0,0,0,0,0,0,0,0,0,0,0,0,0,0,0,0,0,0,0,0,0,0,0,0,0,0,0,0,0,0
1.5E+11,15000,1.5E+11,odom,base_link,-139.9635573,-69.35977048,36.79084007,-0.000609122,-0.001919346,-0.308852225,0.951107906,0,0,0,0,0,0,0,0,0,0,0,0,0,0,0,0,0,0,0,0,0,0,0,0,0,0,0,0,0,0,0,0,0,0,0,0,0.003757539,0,-2.03E-05,-7.38E-07,-1.05E-06,-1.43E-07,0,0,0,0,0,0,0,0,0,0,0,0,0,0,0,0,0,0,0,0,0,0,0,0,0,0,0,0,0,0,0,0,0,0,0,0
1.6E+11,16000,1.6E+11,odom,base_link,-140.0132402,-69.32370032,36.79064519,-0.000610943,-0.001925228,-0.308852876,0.951107681,0,0,0,0,0,0,0,0,0,0,0,0,0,0,0,0,0,0,0,0,0,0,0,0,0,0,0,0,0,0,0,0,0,0,0,0,0.003463089,0,-1.87E-05,-6.82E-07,-9.67E-07,-1.32E-07,0,0,0,0,0,0,0,0,0,0,0,0,0,0,0,0,0,0,0,0,0,0,0,0,0,0,0,0,0,0,0,0,0,0,0,0
1.7E+11,17000,1.7E+11,odom,base_link,-140.0591405,-69.29037624,36.79046452,-0.000612627,-0.001930671,-0.308853479,0.951107473,0,0,0,0,0,0,0,0,0,0,0,0,0,0,0,0,0,0,0,0,0,0,0,0,0,0,0,0,0,0,0,0,0,0,0,0,0.003208413,0,-1.74E-05,-6.33E-07,-8.98E-07,-1.23E-07,0,0,0,0,0,0,0,0,0,0,0,0,0,0,0,0,0,0,0,0,0,0,0,0,0,0,0,0,0,0,0,0,0,0,0,0
1.8E+11,18000,1.8E+11,odom,base_link,-140.1018068,-69.25940003,36.79029604,-0.000614196,-0.001935738,-0.308854042,0.951107279,0,0,0,0,0,0,0,0,0,0,0,0,0,0,0,0,0,0,0,0,0,0,0,0,0,0,0,0,0,0,0,0,0,0,0,0,0.002993364,0,-1.63E-05,-5.91E-07,-8.38E-07,-1.15E-07,0,0,0,0,0,0,0,0,0,0,0,0,0,0,0,0,0,0,0,0,0,0,0,0,0,0,0,0,0,0,0,0,0,0,0,0
1.9E+11,19000,1.9E+11,odom,base_link,-140.1417752,-69.23038234,36.79013776,-0.000615667,-0.001940491,-0.308854572,0.951107096,0,0,0,0,0,0,0,0,0,0,0,0,0,0,0,0,0,0,0,0,0,0,0,0,0,0,0,0,0,0,0,0,0,0,0,0,0.002816311,0,-1.54E-05,-5.57E-07,-7.90E-07,-1.09E-07,0,0,0,0,0,0,0,0,0,0,0,0,0,0,0,0,0,0,0,0,0,0,0,0,0,0,0,0,0,0,0,0,0,0,0,0
2E+11,20000,2E+11,odom,base_link,-140.1795499,-69.20295732,36.78998775,-0.000617059,-0.001944987,-0.308855075,0.951106923,0,0,0,0,0,0,0,0,0,0,0,0,0,0,0,0,0,0,0,0,0,0,0,0,0,0,0,0,0,0,0,0,0,0,0,0,0.002674218,0,-1.46E-05,-5.29E-07,-7.51E-07,-1.04E-07,0,0,0,0,0,0,0,0,0,0,0,0,0,0,0,0,0,0,0,0,0,0,0,0,0,0,0,0,0,0,0,0,0,0,0,0
2.1E+11,21000,2.1E+11,odom,base_link,-140.2155849,-69.17679521,36.78984428,-0.000618388,-0.00194928,-0.308855556,0.951106757,0,0,0,0,0,0,0,0,0,0,0,0,0,0,0,0,0,0,0,0,0,0,0,0,0,0,0,0,0,0,0,0,0,0,0,0,0.002562974,0,-1.41E-05,-5.08E-07,-7.20E-07,-9.99E-08,0,0,0,0,0,0,0,0,0,0,0,0,0,0,0,0,0,0,0,0,0,0,0,0,0,0,0,0,0,0,0,0,0,0,0,0
2.2E+11,22000,2.2E+11,odom,base_link,-140.2502732,-69.15161075,36.78970583,-0.000619669,-0.001953417,-0.308856021,0.951106597,0,0,0,0,0,0,0,0,0,0,0,0,0,0,0,0,0,0,0,0,0,0,0,0,0,0,0,0,0,0,0,0,0,0,0,0,0.00247788,0,-1.36E-05,-4.91E-07,-6.97E-07,-9.69E-08,0,0,0,0,0,0,0,0,0,0,0,0,0,0,0,0,0,0,0,0,0,0,0,0,0,0,0,0,0,0,0,0,0,0,0,0
2.3E+11,23000,2.3E+11,odom,base_link,-140.2839419,-69.12716647,36.78957112,-0.000620913,-0.001957435,-0.308856474,0.951106441,0,0,0,0,0,0,0,0,0,0,0,0,0,0,0,0,0,0,0,0,0,0,0,0,0,0,0,0,0,0,0,0,0,0,0,0,0.00241416,0,-1.33E-05,-4.79E-07,-6.79E-07,-9.46E-08,0,0,0,0,0,0,0,0,0,0,0,0,0,0,0,0,0,0,0,0,0,0,0,0,0,0,0,0,0,0,0,0,0,0,0,0
2.4E+11,24000,2.4E+11,odom,base_link,-140.3168543,-69.10327125,36.78943913,-0.000622131,-0.001961367,-0.308856917,0.951106288,0,0,0,0,0,0,0,0,0,0,0,0,0,0,0,0,0,0,0,0,0,0,0,0,0,0,0,0,0,0,0,0,0,0,0,0,0.002367368,0,-1.31E-05,-4.70E-07,-6.67E-07,-9.29E-08,0,0,0,0,0,0,0,0,0,0,0,0,0,0,0,0,0,0,0,0,0,0,0,0,0,0,0,0,0,0,0,0,0,0,0,0
2.5E+11,25000,2.5E+11,odom,base_link,-140.3492162,-69.07977568,36.78930906,-0.00062333,-0.001965236,-0.308857353,0.951106138,0,0,0,0,0,0,0,0,0,0,0,0,0,0,0,0,0,0,0,0,0,0,0,0,0,0,0,0,0,0,0,0,0,0,0,0,0.00233364,0,-1.29E-05,-4.64E-07,-6.58E-07,-9.17E-08,0,0,0,0,0,0,0,0,0,0,0,0,0,0,0,0,0,0,0,0,0,0,0,0,0,0,0,0,0,0,0,0,0,0,0,0
2.6E+11,26000,2.6E+11,odom,base_link,-140.3811846,-69.05656565,36.78918027,-0.000624515,-0.001969062,-0.308857784,0.951105989,0,0,0,0,0,0,0,0,0,0,0,0,0,0,0,0,0,0,0,0,0,0,0,0,0,0,0,0,0,0,0,0,0,0,0,0,0.002309786,0,-1.28E-05,-4.60E-07,-6.52E-07,-9.08E-08,0,0,0,0,0,0,0,0,0,0,0,0,0,0,0,0,0,0,0,0,0,0,0,0,0,0,0,0,0,0,0,0,0,0,0,0
2.7E+11,27000,2.7E+11,odom,base_link,-140.4128776,-69.03355557,36.7890523,-0.000625691,-0.001972859,-0.308858212,0.951105841,0,0,0,0,0,0,0,0,0,0,0,0,0,0,0,0,0,0,0,0,0,0,0,0,0,0,0,0,0,0,0,0,0,0,0,0,0.002293277,0,-1.28E-05,-4.57E-07,-6.48E-07,-9.02E-08,0,0,0,0,0,0,0,0,0,0,0,0,0,0,0,0,0,0,0,0,0,0,0,0,0,0,0,0,0,0,0,0,0,0,0,0
2.799E+11,28000,2.8E+11,odom,base_link,-140.4443823,-69.01068219,36.78892482,-0.000626862,-0.001976636,-0.308858637,0.951105695,0,0,0,0,0,0,0,0,0,0,0,0,0,0,0,0,0,0,0,0,0,0,0,0,0,0,0,0,0,0,0,0,0,0,0,0,0.002282165,0,-1.27E-05,-4.55E-07,-6.45E-07,-8.97E-08,0,0,0,0,0,0,0,0,0,0,0,0,0,0,0,0,0,0,0,0,0,0,0,0,0,0,0,0,0,0,0,0,0,0,0,0
2.9E+11,29000,2.9E+11,odom,base_link,-140.4757624,-68.98789921,36.78879755,-0.000628029,-0.001980403,-0.308859061,0.951105548,0,0,0,0,0,0,0,0,0,0,0,0,0,0,0,0,0,0,0,0,0,0,0,0,0,0,0,0,0,0,0,0,0,0,0,0,0.002274985,0,-1.27E-05,-4.54E-07,-6.44E-07,-8.94E-08,0,0,0,0,0,0,0,0,0,0,0,0,0,0,0,0,0,0,0,0,0,0,0,0,0,0,0,0,0,0,0,0,0,0,0,0
3E+11,30000,3E+11,odom,base_link,-140.5070642,-68.96517304,36.78867032,-0.000629195,-0.001984164,-0.308859483,0.951105403,0,0,0,0,0,0,0,0,0,0,0,0,0,0,0,0,0,0,0,0,0,0,0,0,0,0,0,0,0,0,0,0,0,0,0,0,0.002270651,0,-1.27E-05,-4.54E-07,-6.43E-07,-8.93E-08,0,0,0,0,0,0,0,0,0,0,0,0,0,0,0,0,0,0,0,0,0,0,0,0,0,0,0,0,0,0,0,0,0,0,0,0
3.099E+11,30997,3.0997E+11,odom,base_link,-140.5382273,-68.94254744,36.78854338,-0.000630356,-0.001987913,-0.308859903,0.951105258,0,0,0,0,0,0,0,0,0,0,0,0,0,0,0,0,0,0,0,0,0,0,0,0,0,0,0,0,0,0,0,0,0,0,0,0,0.002268371,0,-1.27E-05,-4.54E-07,-6.43E-07,-8.91E-08,0,0,0,0,0,0,0,0,0,0,0,0,0,0,0,0,0,0,0,0,0,0,0,0,0,0,0,0,0,0,0,0,0,0,0,0
3.1E+11,31000,3.1E+11,odom,base_link,-140.5383211,-68.94247939,36.788543,-0.00063036,-0.001987924,-0.308859905,0.951105257,0,0,0,0,0,0,0,0,0,0,0,0,0,0,0,0,0,0,0,0,0,0,0,0,0,0,0,0,0,0,0,0,0,0,0,0,0.002268367,0,-1.27E-05,-4.54E-07,-6.43E-07,-8.91E-08,0,0,0,0,0,0,0,0,0,0,0,0,0,0,0,0,0,0,0,0,0,0,0,0,0,0,0,0,0,0,0,0,0,0,0,0
3.2E+11,32000,3.2E+11,odom,base_link,-140.5695572,-68.91980082,36.78841548,-0.000631525,-0.001991685,-0.308860326,0.951105112,0,0,0,0,0,0,0,0,0,0,0,0,0,0,0,0,0,0,0,0,0,0,0,0,0,0,0,0,0,0,0,0,0,0,0,0,0.002267555,0,-1.28E-05,-4.54E-07,-6.44E-07,-8.91E-08,0,0,0,0,0,0,0,0,0,0,0,0,0,0,0,0,0,0,0,0,0,0,0,0,0,0,0,0,0,0,0,0,0,0,0,0
3.3E+11,33000,3.3E+11,odom,base_link,-140.6007897,-68.89712479,36.78828769,-0.000632692,-0.00199545,-0.308860747,0.951104966,0,0,0,0,0,0,0,0,0,0,0,0,0,0,0,0,0,0,0,0,0,0,0,0,0,0,0,0,0,0,0,0,0,0,0,0,0.002267798,0,-1.28E-05,-4.55E-07,-6.45E-07,-8.91E-08,0,0,0,0,0,0,0,0,0,0,0,0,0,0,0,0,0,0,0,0,0,0,0,0,0,0,0,0,0,0,0,0,0,0,0,0
3.4E+11,34000,3.4E+11,odom,base_link,-140.632031,-68.87444235,36.78815958,-0.000633861,-0.001999221,-0.308861168,0.951104821,0,0,0,0,0,0,0,0,0,0,0,0,0,0,0,0,0,0,0,0,0,0,0,0,0,0,0,0,0,0,0,0,0,0,0,0,0.002268797,0,-1.28E-05,-4.55E-07,-6.46E-07,-8.91E-08,0,0,0,0,0,0,0,0,0,0,0,0,0,0,0,0,0,0,0,0,0,0,0,0,0,0,0,0,0,0,0,0,0,0,0,0
3.5E+11,35000,3.5E+11,odom,base_link,-140.6632899,-68.85174705,36.78803112,-0.000635031,-0.002002997,-0.308861589,0.951104675,0,0,0,0,0,0,0,0,0,0,0,0,0,0,0,0,0,0,0,0,0,0,0,0,0,0,0,0,0,0,0,0,0,0,0,0,0.002270337,0,-1.29E-05,-4.56E-07,-6.47E-07,-8.91E-08,0,0,0,0,0,0,0,0,0,0,0,0,0,0,0,0,0,0,0,0,0,0,0,0,0,0,0,0,0,0,0,0,0,0,0,0
3.6E+11,36000,3.6E+11,odom,base_link,-140.6945728,-68.82903432,36.78790228,-0.000636204,-0.002006781,-0.308862011,0.95110453,0,0,0,0,0,0,0,0,0,0,0,0,0,0,0,0,0,0,0,0,0,0,0,0,0,0,0,0,0,0,0,0,0,0,0,0,0.002272264,0,-1.29E-05,-4.57E-07,-6.48E-07,-8.92E-08,0,0,0,0,0,0,0,0,0,0,0,0,0,0,0,0,0,0,0,0,0,0,0,0,0,0,0,0,0,0,0,0,0,0,0,0
3.7E+11,37000,3.7E+11,odom,base_link,-140.7258842,-68.80630084,36.78777304,-0.000637379,-0.002010572,-0.308862433,0.951104384,0,0,0,0,0,0,0,0,0,0,0,0,0,0,0,0,0,0,0,0,0,0,0,0,0,0,0,0,0,0,0,0,0,0,0,0,0.002274469,0,-1.29E-05,-4.58E-07,-6.49E-07,-8.93E-08,0,0,0,0,0,0,0,0,0,0,0,0,0,0,0,0,0,0,0,0,0,0,0,0,0,0,0,0,0,0,0,0,0,0,0,0
3.8E+11,38000,3.8E+11,odom,base_link,-140.7572274,-68.78354427,36.78764338,-0.000638556,-0.002014372,-0.308862855,0.951104238,0,0,0,0,0,0,0,0,0,0,0,0,0,0,0,0,0,0,0,0,0,0,0,0,0,0,0,0,0,0,0,0,0,0,0,0,0.002276873,0,-1.30E-05,-4.59E-07,-6.51E-07,-8.93E-08,0,0,0,0,0,0,0,0,0,0,0,0,0,0,0,0,0,0,0,0,0,0,0,0,0,0,0,0,0,0,0,0,0,0,0,0
3.9E+11,39000,3.9E+11,odom,base_link,-140.7886046,-68.76076289,36.78751329,-0.000639737,-0.00201818,-0.308863277,0.951104092,0,0,0,0,0,0,0,0,0,0,0,0,0,0,0,0,0,0,0,0,0,0,0,0,0,0,0,0,0,0,0,0,0,0,0,0,0.002279421,0,-1.30E-05,-4.60E-07,-6.52E-07,-8.94E-08,0,0,0,0,0,0,0,0,0,0,0,0,0,0,0,0,0,0,0,0,0,0,0,0,0,0,0,0,0,0,0,0,0,0,0,0
4E+11,40000,4E+11,odom,base_link,-140.8200177,-68.73795549,36.78738277,-0.00064092,-0.002021997,-0.3088637,0.951103946,0,0,0,0,0,0,0,0,0,0,0,0,0,0,0,0,0,0,0,0,0,0,0,0,0,0,0,0,0,0,0,0,0,0,0,0,0.002282073,0,-1.31E-05,-4.61E-07,-6.54E-07,-8.95E-08,0,0,0,0,0,0,0,0,0,0,0,0,0,0,0,0,0,0,0,0,0,0,0,0,0,0,0,0,0,0,0,0,0,0,0,0
4.1E+11,41000,4.1E+11,odom,base_link,-140.8514677,-68.71512118,36.78725181,-0.000642105,-0.002025822,-0.308864123,0.951103799,0,0,0,0,0,0,0,0,0,0,0,0,0,0,0,0,0,0,0,0,0,0,0,0,0,0,0,0,0,0,0,0,0,0,0,0,0.0022848,0,-1.31E-05,-4.62E-07,-6.55E-07,-8.96E-08,0,0,0,0,0,0,0,0,0,0,0,0,0,0,0,0,0,0,0,0,0,0,0,0,0,0,0,0,0,0,0,0,0,0,0,0
4.2E+11,42000,4.2E+11,odom,base_link,-140.8829557,-68.69225931,36.7871204,-0.000643294,-0.002029657,-0.308864547,0.951103653,0,0,0,0,0,0,0,0,0,0,0,0,0,0,0,0,0,0,0,0,0,0,0,0,0,0,0,0,0,0,0,0,0,0,0,0,0.002287582,0,-1.32E-05,-4.63E-07,-6.57E-07,-8.97E-08,0,0,0,0,0,0,0,0,0,0,0,0,0,0,0,0,0,0,0,0,0,0,0,0,0,0,0,0,0,0,0,0,0,0,0,0
4.3E+11,43000,4.3E+11,odom,base_link,-140.9144822,-68.66936941,36.78698854,-0.000644485,-0.002033501,-0.308864971,0.951103506,0,0,0,0,0,0,0,0,0,0,0,0,0,0,0,0,0,0,0,0,0,0,0,0,0,0,0,0,0,0,0,0,0,0,0,0,0.002290405,0,-1.32E-05,-4.64E-07,-6.58E-07,-8.98E-08,0,0,0,0,0,0,0,0,0,0,0,0,0,0,0,0,0,0,0,0,0,0,0,0,0,0,0,0,0,0,0,0,0,0,0,0
4.4E+11,44000,4.4E+11,odom,base_link,-140.9460477,-68.64645111,36.78685622,-0.00064568,-0.002037354,-0.308865396,0.951103359,0,0,0,0,0,0,0,0,0,0,0,0,0,0,0,0,0,0,0,0,0,0,0,0,0,0,0,0,0,0,0,0,0,0,0,0,0.002293259,0,-1.33E-05,-4.66E-07,-6.60E-07,-8.99E-08,0,0,0,0,0,0,0,0,0,0,0,0,0,0,0,0,0,0,0,0,0,0,0,0,0,0,0,0,0,0,0,0,0,0,0,0
4.5E+11,45000,4.5E+11,odom,base_link,-140.9776527,-68.62350416,36.78672345,-0.000646877,-0.002041216,-0.308865821,0.951103212,0,0,0,0,0,0,0,0,0,0,0,0,0,0,0,0,0,0,0,0,0,0,0,0,0,0,0,0,0,0,0,0,0,0,0,0,0.002296136,0,-1.33E-05,-4.67E-07,-6.62E-07,-9.00E-08,0,0,0,0,0,0,0,0,0,0,0,0,0,0,0,0,0,0,0,0,0,0,0,0,0,0,0,0,0,0,0,0,0,0,0,0
4.6E+11,46000,4.6E+11,odom,base_link,-141.0092973,-68.60052834,36.78659022,-0.000648077,-0.002045087,-0.308866247,0.951103065,0,0,0,0,0,0,0,0,0,0,0,0,0,0,0,0,0,0,0,0,0,0,0,0,0,0,0,0,0,0,0,0,0,0,0,0,0.002299031,0,-1.33E-05,-4.68E-07,-6.63E-07,-9.01E-08,0,0,0,0,0,0,0,0,0,0,0,0,0,0,0,0,0,0,0,0,0,0,0,0,0,0,0,0,0,0,0,0,0,0,0,0
4.7E+11,47000,4.7E+11,odom,base_link,-141.0409819,-68.57752349,36.78645652,-0.00064928,-0.002048968,-0.308866673,0.951102917,0,0,0,0,0,0,0,0,0,0,0,0,0,0,0,0,0,0,0,0,0,0,0,0,0,0,0,0,0,0,0,0,0,0,0,0,0.00230194,0,-1.34E-05,-4.69E-07,-6.65E-07,-9.02E-08,0,0,0,0,0,0,0,0,0,0,0,0,0,0,0,0,0,0,0,0,0,0,0,0,0,0,0,0,0,0,0,0,0,0,0,0
4.8E+11,48000,4.8E+11,odom,base_link,-141.0727066,-68.55448949,36.78632236,-0.000650486,-0.002052859,-0.308867099,0.951102769,0,0,0,0,0,0,0,0,0,0,0,0,0,0,0,0,0,0,0,0,0,0,0,0,0,0,0,0,0,0,0,0,0,0,0,0,0.002304861,0,-1.34E-05,-4.70E-07,-6.66E-07,-9.03E-08,0,0,0,0,0,0,0,0,0,0,0,0,0,0,0,0,0,0,0,0,0,0,0,0,0,0,0,0,0,0,0,0,0,0,0,0
4.9E+11,49000,4.9E+11,odom,base_link,-141.1044715,-68.53142623,36.78618774,-0.000651694,-0.002056758,-0.308867526,0.951102621,0,0,0,0,0,0,0,0,0,0,0,0,0,0,0,0,0,0,0,0,0,0,0,0,0,0,0,0,0,0,0,0,0,0,0,0,0.002307793,0,-1.35E-05,-4.71E-07,-6.68E-07,-9.04E-08,0,0,0,0,0,0,0,0,0,0,0,0,0,0,0,0,0,0,0,0,0,0,0,0,0,0,0,0,0,0,0,0,0,0,0,0
5E+11,50000,5E+11,odom,base_link,-141.1362768,-68.50833361,36.78605264,-0.000652906,-0.002060667,-0.308867954,0.951102473,0,0,0,0,0,0,0,0,0,0,0,0,0,0,0,0,0,0,0,0,0,0,0,0,0,0,0,0,0,0,0,0,0,0,0,0,0.002310732,0,-1.35E-05,-4.72E-07,-6.70E-07,-9.05E-08,0,0,0,0,0,0,0,0,0,0,0,0,0,0,0,0,0,0,0,0,0,0,0,0,0,0,0,0,0,0,0,0,0,0,0,0
5.1E+11,51000,5.1E+11,odom,base_link,-141.1681225,-68.48521155,36.78591708,-0.000654121,-0.002064586,-0.308868382,0.951102325,0,0,0,0,0,0,0,0,0,0,0,0,0,0,0,0,0,0,0,0,0,0,0,0,0,0,0,0,0,0,0,0,0,0,0,0,0.00231368,0,-1.36E-05,-4.74E-07,-6.71E-07,-9.06E-08,0,0,0,0,0,0,0,0,0,0,0,0,0,0,0,0,0,0,0,0,0,0,0,0,0,0,0,0,0,0,0,0,0,0,0,0
5.2E+11,52000,5.2E+11,odom,base_link,-141.2000089,-68.46205999,36.78578104,-0.000655339,-0.002068514,-0.308868811,0.951102176,0,0,0,0,0,0,0,0,0,0,0,0,0,0,0,0,0,0,0,0,0,0,0,0,0,0,0,0,0,0,0,0,0,0,0,0,0.002316634,0,-1.36E-05,-4.75E-07,-6.73E-07,-9.07E-08,0,0,0,0,0,0,0,0,0,0,0,0,0,0,0,0,0,0,0,0,0,0,0,0,0,0,0,0,0,0,0,0,0,0,0,0
5.299E+11,52997,5.2997E+11,odom,base_link,-141.23184,-68.43894843,36.78564494,-0.000656556,-0.00207244,-0.308869238,0.951102028,0,0,0,0,0,0,0,0,0,0,0,0,0,0,0,0,0,0,0,0,0,0,0,0,0,0,0,0,0,0,0,0,0,0,0,0,0.002319586,0,-1.37E-05,-4.76E-07,-6.75E-07,-9.09E-08,0,0,0,0,0,0,0,0,0,0,0,0,0,0,0,0,0,0,0,0,0,0,0,0,0,0,0,0,0,0,0,0,0,0,0,0
5.299E+11,53000,5.3E+11,odom,base_link,-141.2319359,-68.43887884,36.78564453,-0.000656559,-0.002072452,-0.30886924,0.951102027,0,0,0,0,0,0,0,0,0,0,0,0,0,0,0,0,0,0,0,0,0,0,0,0,0,0,0,0,0,0,0,0,0,0,0,0,0.002319595,0,-1.37E-05,-4.76E-07,-6.75E-07,-9.09E-08,0,0,0,0,0,0,0,0,0,0,0,0,0,0,0,0,0,0,0,0,0,0,0,0,0,0,0,0,0,0,0,0,0,0,0,0
5.4E+11,54000,5.4E+11,odom,base_link,-141.2639037,-68.41566806,36.78550754,-0.000657783,-0.002076399,-0.308869669,0.951101879,0,0,0,0,0,0,0,0,0,0,0,0,0,0,0,0,0,0,0,0,0,0,0,0,0,0,0,0,0,0,0,0,0,0,0,0,0.002322562,0,-1.37E-05,-4.77E-07,-6.76E-07,-9.10E-08,0,0,0,0,0,0,0,0,0,0,0,0,0,0,0,0,0,0,0,0,0,0,0,0,0,0,0,0,0,0,0,0,0,0,0,0
5.5E+11,55000,5.5E+11,odom,base_link,-141.2959123,-68.39242758,36.78537008,-0.00065901,-0.002080356,-0.308870099,0.951101729,0,0,0,0,0,0,0,0,0,0,0,0,0,0,0,0,0,0,0,0,0,0,0,0,0,0,0,0,0,0,0,0,0,0,0,0,0.002325535,0,-1.38E-05,-4.78E-07,-6.78E-07,-9.11E-08,0,0,0,0,0,0,0,0,0,0,0,0,0,0,0,0,0,0,0,0,0,0,0,0,0,0,0,0,0,0,0,0,0,0,0,0
